[
  {
    "iata": "ALG",
    "lat": "36.6993",
    "lng": "3.21935",
    "name": "Houari Boumediene Airport",
    "city": "Algiers",
    "state": "Alger",
    "country": "Algeria",
    "answered": false,
    "correct": false
  },
  {
    "iata": "AMS",
    "lat": "52.3122",
    "lng": "4.77511",
    "name": "Schiphol Airport",
    "city": "Schiphol Zuid",
    "state": "North Holland",
    "country": "Netherlands",
    "answered": false,
    "correct": false
  },
  {
    "iata": "ANU",
    "lat": "17.1375",
    "lng": "-61.79",
    "name": "V C Bird International Airport",
    "city": "Carlisle",
    "state": "Saint George",
    "country": "Antigua and Barbuda",
    "answered": false,
    "correct": false
  },
  {
    "iata": "ARN",
    "lat": "59.6521",
    "lng": "17.9317",
    "name": "Arlanda Airport",
    "city": "Märst",
    "state": "Stockholm",
    "country": "Sweden",
    "answered": false,
    "correct": false
  },
  {
    "iata": "ATH",
    "lat": "37.8937",
    "lng": "23.7235",
    "name": "Eleftherios Venizelos International Airport",
    "city": "Athens",
    "state": "Attiki",
    "country": "Greece",
    "answered": false,
    "correct": false
  },
  {
    "iata": "ATL",
    "lat": "33.6558",
    "lng": "-84.4333",
    "name": "Hartsfield-Jackson Atlanta International Airport",
    "city": "Atlanta",
    "state": "Georgia",
    "country": "United States",
    "answered": false,
    "correct": false
  },
  {
    "iata": "BAH",
    "lat": "26.2736",
    "lng": "50.6234",
    "name": "Bahrain International Airport",
    "city": "Al Muharraq",
    "state": "Al Manamah",
    "country": "Bahrain",
    "answered": false,
    "correct": false
  },
  {
    "iata": "BCN",
    "lat": "41.3006",
    "lng": "2.07976",
    "name": "Barcelona International Airport",
    "city": "El Prat de Llobregat",
    "state": "Catalonia",
    "country": "Spain",
    "answered": false,
    "correct": false
  },
  {
    "iata": "BEY",
    "lat": "33.825",
    "lng": "35.4925",
    "name": "Beirut International Airport",
    "city": "Beirut",
    "state": "Jabal Lubnan",
    "country": "Lebanon",
    "answered": false,
    "correct": false
  },
  {
    "iata": "BGI",
    "lat": "13.0719",
    "lng": "-59.4939",
    "name": "Grantley Adams International Airport",
    "city": "Bridgetown",
    "state": "Christ Church",
    "country": "Barbados",
    "answered": false,
    "correct": false
  },
  {
    "iata": "BKK",
    "lat": "13.9144",
    "lng": "100.608",
    "name": "Bangkok International Airport",
    "city": "Lak Si",
    "state": "Bangkok",
    "country": "Thailand",
    "answered": false,
    "correct": false
  },
  {
    "iata": "BOM",
    "lat": "19.0932",
    "lng": "72.8654",
    "name": "Chhatrapati Shivaji International Airport",
    "city": "Mumbai",
    "state": "Maharashtra",
    "country": "India",
    "answered": false,
    "correct": false
  },
  {
    "iata": "BRU",
    "lat": "50.899",
    "lng": "4.4859",
    "name": "Brussels Airport",
    "city": "Bruxelles",
    "state": "Vlaams Brabant",
    "country": "Belgium",
    "answered": false,
    "correct": false
  },
  {
    "iata": "BUD",
    "lat": "47.4453",
    "lng": "19.2195",
    "name": "Ferihegy Airport",
    "city": "Budapest",
    "state": "Budapest",
    "country": "Hungary",
    "answered": false,
    "correct": false
  },
  {
    "iata": "CAI",
    "lat": "30.1206",
    "lng": "31.4078",
    "name": "Cairo International Airport",
    "city": "Cairo",
    "state": "Al Qahirah",
    "country": "Egypt",
    "answered": false,
    "correct": false
  },
  {
    "iata": "CAN",
    "lat": "23.3925",
    "lng": "113.299",
    "name": "Baiyun Airport",
    "city": "Guangzhou",
    "state": "Guangdong",
    "country": "China",
    "answered": false,
    "correct": false
  },
  {
    "iata": "CDG",
    "lat": "49.0175",
    "lng": "2.5564",
    "name": "Charles de Gaulle International Airport",
    "city": "Le Mesnil-Amelot",
    "state": "Ile-de-France",
    "country": "France",
    "answered": false,
    "correct": false
  },
  {
    "iata": "CGK",
    "lat": "-6.11964",
    "lng": "106.656",
    "name": "Jakarta International Airport",
    "city": "Tangerang",
    "state": "Banten",
    "country": "Indonesia",
    "answered": false,
    "correct": false
  },
  {
    "iata": "CLT",
    "lat": "35.2226",
    "lng": "-80.946",
    "name": "Douglas International Airport",
    "city": "Charlotte",
    "state": "North Carolina",
    "country": "United States",
    "answered": false,
    "correct": false
  },
  {
    "iata": "CPH",
    "lat": "55.6205",
    "lng": "12.6495",
    "name": "Copenhagen Airport",
    "city": "Kastrup",
    "state": "Hovedstaden",
    "country": "Denmark",
    "answered": false,
    "correct": false
  },
  {
    "iata": "CPT",
    "lat": "-33.9647",
    "lng": "18.6022",
    "name": "D F Malan Airport",
    "city": "Cape Town",
    "state": "Western Cape",
    "country": "South Africa",
    "answered": false,
    "correct": false
  },
  {
    "iata": "DBV",
    "lat": "42.5631",
    "lng": "18.2692",
    "name": "Dubrovnik Airport",
    "city": "Dubrovnik",
    "state": "Dubrovačko-neretvanska",
    "country": "Croatia",
    "answered": false,
    "correct": false
  },
  {
    "iata": "DUB",
    "lat": "53.4272",
    "lng": "-6.24418",
    "name": "Dublin Airport",
    "city": "Dublin",
    "state": "Ireland",
    "country": "Ireland",
    "answered": false,
    "correct": false
  },
  {
    "iata": "DEL",
    "lat": "28.5603",
    "lng": "77.1027",
    "name": "Indira Gandhi International Airport",
    "city": "New Delhi",
    "state": "Madhya Pradesh",
    "country": "India",
    "answered": false,
    "correct": false
  },
  {
    "iata": "DEN",
    "lat": "39.8396",
    "lng": "-104.672",
    "name": "Denver International Airport",
    "city": "Denver",
    "state": "Colorado",
    "country": "United States",
    "answered": false,
    "correct": false
  },
  {
    "iata": "DFW",
    "lat": "32.9222",
    "lng": "-97.0409",
    "name": "Fort Worth International Airport",
    "city": "Dallas",
    "state": "Texas",
    "country": "United States",
    "answered": false,
    "correct": false
  },
  {
    "iata": "DOH",
    "lat": "25.2592",
    "lng": "51.5658",
    "name": "Doha International Airport",
    "city": "Doha",
    "state": "Doha",
    "country": "Qatar",
    "answered": false,
    "correct": false
  },
  {
    "iata": "DXB",
    "lat": "25.2509",
    "lng": "55.3629",
    "name": "Dubai International Airport",
    "city": "Dubai",
    "state": "Dubai",
    "country": "United Arab Emirates",
    "answered": false,
    "correct": false
  },
  {
    "iata": "ESB",
    "lat": "40.1289",
    "lng": "32.9961",
    "name": "Esenboga Airport",
    "city": "Çubuk",
    "state": "Ankara",
    "country": "Turkey",
    "answered": false,
    "correct": false
  },
  {
    "iata": "EWR",
    "lat": "40.6924",
    "lng": "-74.1843",
    "name": "Newark International Airport",
    "city": "Newark",
    "state": "New Jersey",
    "country": "United States",
    "answered": false,
    "correct": false
  },
  {
    "iata": "FCO",
    "lat": "41.8026",
    "lng": "12.2551",
    "name": "Leonardo da Vinci International Airport",
    "city": "Rome",
    "state": "Lazio",
    "country": "Italy",
    "answered": false,
    "correct": false
  },
  {
    "iata": "FRA",
    "lat": "50.0483",
    "lng": "8.57041",
    "name": "Frankfurt International Airport",
    "city": "Frankfurt",
    "state": "Hesse",
    "country": "Germany",
    "answered": false,
    "correct": false
  },
  {
    "iata": "GRU",
    "lat": "-23.435",
    "lng": "-46.4728",
    "name": "Governador Andre Franco Montoro International Ai",
    "city": "Guarulhos",
    "state": "Sao Paulo",
    "country": "Brazil",
    "answered": false,
    "correct": false
  },
  {
    "iata": "GVA",
    "lat": "46.2329",
    "lng": "6.10682",
    "name": "Geneva Airport",
    "city": "Geneva",
    "state": "Canton of Geneva",
    "country": "Switzerland",
    "answered": false,
    "correct": false
  },
  {
    "iata": "GYD",
    "lat": "40.3781",
    "lng": "49.8028",
    "name": "Heydar Aliyev International Airport",
    "city": "Baku",
    "state": "Baki",
    "country": "Azerbaijan",
    "answered": false,
    "correct": false
  },
  {
    "iata": "HAN",
    "lat": "21.2263",
    "lng": "105.815",
    "name": "Noi Bai Airport",
    "city": "Hanoi",
    "state": "Ha Noi",
    "country": "Vietnam",
    "answered": false,
    "correct": false
  },
  {
    "iata": "HEL",
    "lat": "60.3243",
    "lng": "24.9688",
    "name": "Helsinki Vantaa Airport",
    "city": "Vantaa",
    "state": "Southern Finland",
    "country": "Finland",
    "answered": false,
    "correct": false
  },
  {
    "iata": "HKG",
    "lat": "22.3124",
    "lng": "113.929",
    "name": "Hong Kong International Airport",
    "city": "Hong Kong",
    "state": "Hong Kong Island",
    "country": "Hong Kong",
    "answered": false,
    "correct": false
  },
  {
    "iata": "HKT",
    "lat": "8.1106",
    "lng": "98.3125",
    "name": "Phuket International Airport",
    "city": "Thalang",
    "state": "Phuket",
    "country": "Thailand",
    "answered": false,
    "correct": false
  },
  {
    "iata": "HND",
    "lat": "35.5533",
    "lng": "139.771",
    "name": "Tokyo International Airport",
    "city": "Tokyo",
    "state": "Tokyo Prefecture",
    "country": "Japan",
    "answered": false,
    "correct": false
  },
  {
    "iata": "IAH",
    "lat": "29.9784",
    "lng": "-95.3424",
    "name": "George Bush Intercontinental Airport",
    "city": "Houston",
    "state": "Texas",
    "country": "United States",
    "answered": false,
    "correct": false
  },
  {
    "iata": "ICN",
    "lat": "37.4534",
    "lng": "126.657",
    "name": "New Incheon International Airport",
    "city": "Incheon",
    "state": "Incheon",
    "country": "South Korea",
    "answered": false,
    "correct": false
  },
  {
    "iata": "IST",
    "lat": "40.9857",
    "lng": "28.8163",
    "name": "Ataturk Hava Limani Airport",
    "city": "Bakırköy",
    "state": "Istanbul",
    "country": "Turkey",
    "answered": false,
    "correct": false
  },
  {
    "iata": "JED",
    "lat": "21.706",
    "lng": "39.1386",
    "name": "King Abdul Aziz International Airport",
    "city": "Jeddah",
    "state": "Makka",
    "country": "Saudi Arabia",
    "answered": false,
    "correct": false
  },
  {
    "iata": "JFK",
    "lat": "40.6437",
    "lng": "-73.79",
    "name": "John F Kennedy International Airport",
    "city": "New York",
    "state": "New York",
    "country": "United States",
    "answered": false,
    "correct": false
  },
  {
    "iata": "JNB",
    "lat": "-26.1219",
    "lng": "28.2467",
    "name": "OR Tambo International Airport",
    "city": "Johannesburg",
    "state": "Gauteng",
    "country": "South Africa",
    "answered": false,
    "correct": false
  },
  {
    "iata": "KEF",
    "lat": "63.9853",
    "lng": "-22.6042",
    "name": "Keflavik International",
    "city": "Reykjavik",
    "state": "Keflavik",
    "country": "Iceland",
    "answered": false,
    "correct": false
  },
  {
    "iata": "KUL",
    "lat": "2.77859",
    "lng": "101.689",
    "name": "Kuala Lumpur International Airport",
    "city": "Sepang",
    "state": "Putrajaya",
    "country": "Malaysia",
    "answered": false,
    "correct": false
  },
  {
    "iata": "KWI",
    "lat": "29.2442",
    "lng": "47.9748",
    "name": "Kuwait International Airport",
    "city": "Kuwait City",
    "state": "Al Farwaniyah",
    "country": "Kuwait",
    "answered": false,
    "correct": false
  },
  {
    "iata": "LAS",
    "lat": "36.0806",
    "lng": "-115.143",
    "name": "Mccarran International Airport",
    "city": "Las Vegas",
    "state": "Nevada",
    "country": "United States",
    "answered": false,
    "correct": false
  },
  {
    "iata": "LAX",
    "lat": "33.9456",
    "lng": "-118.391",
    "name": "Los Angeles International Airport",
    "city": "Los Angeles",
    "state": "California",
    "country": "United States",
    "answered": false,
    "correct": false
  },
  {
    "iata": "LCY",
    "lat": "51.5039",
    "lng": "0.04981",
    "name": "London City Airport",
    "city": "London",
    "state": "England",
    "country": "United Kingdom",
    "answered": false,
    "correct": false
  },
  {
    "iata": "LGW",
    "lat": "51.1568",
    "lng": "-0.16988",
    "name": "London Gatwick Airport",
    "city": "Horley",
    "state": "England",
    "country": "United Kingdom",
    "answered": false,
    "correct": false
  },
  {
    "iata": "LHR",
    "lat": "51.4703",
    "lng": "-0.45342",
    "name": "London Heathrow Airport",
    "city": "Hounslow",
    "state": "England",
    "country": "United Kingdom",
    "answered": false,
    "correct": false
  },
  {
    "iata": "LIN",
    "lat": "45.4558",
    "lng": "9.27269",
    "name": "Linate Airport",
    "city": "Peschiera Borromeo",
    "state": "Lombardy",
    "country": "Italy",
    "answered": false,
    "correct": false
  },
  {
    "iata": "LOS",
    "lat": "6.575",
    "lng": "3.3222",
    "name": "Lagos Murtala Muhammed Airport",
    "city": "Ikeja",
    "state": "Lagos",
    "country": "Nigeria",
    "answered": false,
    "correct": false
  },
  {
    "iata": "LUX",
    "lat": "49.6269",
    "lng": "6.20685",
    "name": "Luxembourg Airport",
    "city": "Sandweiler",
    "state": "Luxemburg",
    "country": "Luxembourg",
    "answered": false,
    "correct": false
  },
  {
    "iata": "MAD",
    "lat": "40.4684",
    "lng": "-3.56769",
    "name": "Barajas Airport",
    "city": "Madrid",
    "state": "Madrid",
    "country": "Spain",
    "answered": false,
    "correct": false
  },
  {
    "iata": "MAN",
    "lat": "53.365",
    "lng": "-2.27089",
    "name": "Manchester International Airport",
    "city": "Manchester",
    "state": "England",
    "country": "United Kingdom",
    "answered": false,
    "correct": false
  },
  {
    "iata": "MCO",
    "lat": "28.4418",
    "lng": "-81.3115",
    "name": "Orlando International Airport",
    "city": "Orlando",
    "state": "Florida",
    "country": "United States",
    "answered": false,
    "correct": false
  },
  {
    "iata": "MEX",
    "lat": "19.4344",
    "lng": "-99.0742",
    "name": "Lic Benito Juarez International Airport",
    "city": "Mexico City",
    "state": "Distrito Federal",
    "country": "Mexico",
    "answered": false,
    "correct": false
  },
  {
    "iata": "MIA",
    "lat": "25.7953",
    "lng": "-80.2727",
    "name": "Miami International Airport",
    "city": "Miami",
    "state": "Florida",
    "country": "United States",
    "answered": false,
    "correct": false
  },
  {
    "iata": "MNL",
    "lat": "14.5114",
    "lng": "121.016",
    "name": "Ninoy Aquino International Airport",
    "city": "Parañaque",
    "state": "National Capital Region",
    "country": "Philippines",
    "answered": false,
    "correct": false
  },
  {
    "iata": "MUC",
    "lat": "48.354",
    "lng": "11.7816",
    "name": "Franz-Josef-Strauss Airport",
    "city": "Oberding",
    "state": "Bavaria",
    "country": "Germany",
    "answered": false,
    "correct": false
  },
  {
    "iata": "MXP",
    "lat": "45.6314",
    "lng": "8.72284",
    "name": "Malpensa International Airport",
    "city": "Cardano al Campo",
    "state": "Lombardy",
    "country": "Italy",
    "answered": false,
    "correct": false
  },
  {
    "iata": "NAP",
    "lat": "40.8837",
    "lng": "14.2815",
    "name": "Naples International Airport",
    "city": "Naples",
    "state": "Campania",
    "country": "Italy",
    "answered": false,
    "correct": false
  },
  {
    "iata": "ORD",
    "lat": "41.9796",
    "lng": "-87.8825",
    "name": "Chicago O'Hare International Airport",
    "city": "Chicago",
    "state": "Illinois",
    "country": "United States",
    "answered": false,
    "correct": false
  },
  {
    "iata": "ORY",
    "lat": "48.7261",
    "lng": "2.36411",
    "name": "Paris Orly Airport",
    "city": "Paris",
    "state": "Ile-de-France",
    "country": "France",
    "answered": false,
    "correct": false
  },
  {
    "iata": "OSL",
    "lat": "60.1947",
    "lng": "11.1005",
    "name": "Oslo Gardermoen Airport",
    "city": "Gardermoen",
    "state": "Akershus Fylke",
    "country": "Norway",
    "answered": false,
    "correct": false
  },
  {
    "iata": "PEK",
    "lat": "40.0724",
    "lng": "116.583",
    "name": "Beijing Capital Airport",
    "city": "Shunyi",
    "state": "Beijing",
    "country": "China",
    "answered": false,
    "correct": false
  },
  {
    "iata": "PHL",
    "lat": "39.8768",
    "lng": "-75.2419",
    "name": "Philadelphia International Airport",
    "city": "Philadelphia",
    "state": "Pennsylvania",
    "country": "United States",
    "answered": false,
    "correct": false
  },
  {
    "iata": "PHX",
    "lat": "33.4376",
    "lng": "-112.03",
    "name": "Sky Harbor International Airport",
    "city": "Phoenix",
    "state": "Arizona",
    "country": "United States",
    "answered": false,
    "correct": false
  },
  {
    "iata": "PMI",
    "lat": "39.5495",
    "lng": "2.73188",
    "name": "Palma de Mallorca Airport",
    "city": "Palma",
    "state": "Balearic Islands",
    "country": "Spain",
    "answered": false,
    "correct": false
  },
  {
    "iata": "PRG",
    "lat": "50.1079",
    "lng": "14.2675",
    "name": "Prague Ruzyne Airport",
    "city": "Prague 6",
    "state": "Hlavni mesto Praha",
    "country": "Czech Republic",
    "answered": false,
    "correct": false
  },
  {
    "iata": "PVG",
    "lat": "31.1156",
    "lng": "121.803",
    "name": "Pudong International Airport",
    "city": "Huinan",
    "state": "Shanghai",
    "country": "China",
    "answered": false,
    "correct": false
  },
  {
    "iata": "RUH",
    "lat": "24.9625",
    "lng": "46.7078",
    "name": "King Khalid International Airport",
    "city": "Riyadh",
    "state": "Ar Riyad",
    "country": "Saudi Arabia",
    "answered": false,
    "correct": false
  },
  {
    "iata": "SEA",
    "lat": "47.4405",
    "lng": "-122.296",
    "name": "Tacoma International Airport",
    "city": "Seattle",
    "state": "Washington",
    "country": "United States",
    "answered": false,
    "correct": false
  },
  {
    "iata": "SFO",
    "lat": "37.6148",
    "lng": "-122.392",
    "name": "San Francisco International Airport",
    "city": "San Francisco",
    "state": "California",
    "country": "United States",
    "answered": false,
    "correct": false
  },
  {
    "iata": "SHA",
    "lat": "31.1865",
    "lng": "121.34",
    "name": "Hongqiao Airport",
    "city": "Shanghai",
    "state": "Shanghai",
    "country": "China",
    "answered": false,
    "correct": false
  },
  {
    "iata": "SIN",
    "lat": "1.3578",
    "lng": "103.991",
    "name": "Singapore Changi Airport",
    "city": "Singapore",
    "state": "South East",
    "country": "Singapore",
    "answered": false,
    "correct": false
  },
  {
    "iata": "SJJ",
    "lat": "43.8247",
    "lng": "18.3361",
    "name": "Sarajevo Airport",
    "city": "Ilidža",
    "state": "Federacija Bosne I Hercegovine",
    "country": "Bosnia and Herzegovina",
    "answered": false,
    "correct": false
  },
  {
    "iata": "SOF",
    "lat": "42.6895",
    "lng": "23.4024",
    "name": "Vrazhdebna Airport",
    "city": "Sofia",
    "state": "Sofiya-Grad",
    "country": "Bulgaria",
    "answered": false,
    "correct": false
  },
  {
    "iata": "SPU",
    "lat": "43.5406",
    "lng": "16.3",
    "name": "Split Airport",
    "city": "Split",
    "state": "Splitsko-Dalmatinska",
    "country": "Croatia",
    "answered": false,
    "correct": false
  },
  {
    "iata": "SYD",
    "lat": "-33.9344",
    "lng": "151.168",
    "name": "Kingsford Smith Airport",
    "city": "Sydney",
    "state": "New South Wales",
    "country": "Australia",
    "answered": false,
    "correct": false
  },
  {
    "iata": "SZX",
    "lat": "22.5333",
    "lng": "113.967",
    "name": "Shenzhen Airport",
    "city": "Shenzhen",
    "state": "Guangdong",
    "country": "China",
    "answered": false,
    "correct": false
  },
  {
    "iata": "TPE",
    "lat": "25.081",
    "lng": "121.237",
    "name": "Taiwan Taoyuan International Airport",
    "city": "Taoyuan City",
    "state": "Taiwan Province",
    "country": "Taiwan",
    "answered": false,
    "correct": false
  },
  {
    "iata": "TUN",
    "lat": "36.8435",
    "lng": "10.2348",
    "name": "Aeroport Tunis",
    "city": "Tunis",
    "state": "Tunis",
    "country": "Tunisia",
    "answered": false,
    "correct": false
  },
  {
    "iata": "VCE",
    "lat": "45.505",
    "lng": "12.3433",
    "name": "Marco Polo International Airport",
    "city": "Venice",
    "state": "Veneto",
    "country": "Italy",
    "answered": false,
    "correct": false
  },
  {
    "iata": "VIE",
    "lat": "48.1036",
    "lng": "16.5804",
    "name": "Vienna Schwechat International Airport",
    "city": "Klein-Neusiedl",
    "state": "Lower Austria",
    "country": "Austria",
    "answered": false,
    "correct": false
  },
  {
    "iata": "WAW",
    "lat": "52.17",
    "lng": "20.9725",
    "name": "Okecie International Airport",
    "city": "Warsaw",
    "state": "Mazowieckie",
    "country": "Poland",
    "answered": false,
    "correct": false
  },
  {
    "iata": "YHZ",
    "lat": "44.8868",
    "lng": "-63.5154",
    "name": "Halifax International Airport",
    "city": "Fall River",
    "state": "Nova Scotia",
    "country": "Canada",
    "answered": false,
    "correct": false
  },
  {
    "iata": "YUL",
    "lat": "45.4562",
    "lng": "-73.7473",
    "name": "Aéroport International Pierre-Elliott-Trudeau d",
    "city": "Dorval",
    "state": "Quebec",
    "country": "Canada",
    "answered": false,
    "correct": false
  },
  {
    "iata": "YYZ",
    "lat": "43.685",
    "lng": "-79.6142",
    "name": "Toronto Lester B Pearson International Airport",
    "city": "Mississauga",
    "state": "Ontario",
    "country": "Canada",
    "answered": false,
    "correct": false
  },
  {
    "iata": "ZAG",
    "lat": "45.7402",
    "lng": "16.0704",
    "name": "Zagreb Airport",
    "city": "Nagygoricza",
    "state": "Zagrebačka",
    "country": "Croatia",
    "answered": false,
    "correct": false
  },
  {
    "iata": "ZRH",
    "lat": "47.454",
    "lng": "8.56137",
    "name": "Zurich International Airport",
    "city": "Kloten",
    "state": "Canton of Zurich",
    "country": "Switzerland",
    "answered": false,
    "correct": false
  }
]